=~=~=~=~=~=~=~=~=~=~=~= PuTTY log 2014.10.13 16:22:45 =~=~=~=~=~=~=~=~=~=~=~=
$GPTXT,01,01,02,u-blox ag - www.u-blox.com*50
$GPTXT,01,01,02,HW  UBX-G5xxx  00040005 FFF1FFFFp*1C
$GPTXT,01,01,02,ROM CORE 5.00 (28483) Jun  6 2008 14:45:11*40
$GPTXT,01,01,02,POST 00000400*71
$GPTXT,01,01,02,ANTSUPERV=AC SD PDoS SR*20
$GPTXT,01,01,02,ANTSTATUS=OK*3B
$GPRMC,202325.00,A,4332.30822,N,07936.80088,W,0.617,219.77,131014,,,A*7A
$GPVTG,219.77,T,,M,0.617,N,1.144,K,A*37
$GPGGA,202325.00,4332.30822,N,07936.80088,W,1,03,2.11,255.9,M,-36.0,M,,*66
$GPGSA,A,2,26,02,29,,,,,,,,,,2.33,2.11,1.00*0F
$GPGSV,2,1,05,02,49,093,26,21,03,288,,25,16,241,18,26,33,155,31*75
$GPGSV,2,2,05,29,51,299,31*43
$GPGLL,4332.30822,N,07936.80088,W,202325.00,A,A*71
$GPRMC,202326.00,A,4332.30810,N,07936.80076,W,0.991,216.90,131014,,,A*7E
$GPVTG,216.90,T,,M,0.991,N,1.836,K,A*3C
$GPGGA,202326.00,4332.30810,N,07936.80076,W,1,03,2.11,255.9,M,-36.0,M,,*65
$GPGSA,A,2,26,02,29,,,,,,,,,,2.33,2.11,1.00*0F
$GPGSV,2,1,05,02,49,093,25,21,03,288,19,25,16,241,18,26,33,155,31*7E
$GPGSV,2,2,05,29,51,299,31*43
$GPGLL,4332.30810,N,07936.80076,W,202326.00,A,A*72
$GPRMC,202327.00,A,4332.30830,N,07936.80038,W,0.723,214.30,131014,,,A*78
$GPVTG,214.30,T,,M,0.723,N,1.340,K,A*39
$GPGGA,202327.00,4332.30830,N,07936.80038,W,1,03,2.11,255.9,M,-36.0,M,,*6C
$GPGSA,A,2,26,02,29,,,,,,,,,,2.33,2.11,1.00*0F
$GPGSV,2,1,05,02,49,093,25,21,04,288,17,25,16,241,18,26,33,155,31*77
$GPGSV,2,2,05,29,51,299,32*40
$GPGLL,4332.30830,N,07936.80038,W,202327.00,A,A*7B
$GPRMC,202328.00,A,4332.30844,N,07936.80030,W,0.753,215.09,131014,,,A*70
$GPVTG,215.09,T,,M,0.753,N,1.395,K,A*3D
$GPGGA,202328.00,4332.30844,N,07936.80030,W,1,03,2.11,255.9,M,-36.0,M,,*68
$GPGSA,A,2,26,02,29,,,,,,,,,,2.33,2.11,1.00*0F
$GPGSV,2,1,05,02,49,093,23,21,04,288,15,25,16,241,18,26,33,155,31*73
$GPGSV,2,2,05,29,51,299,31*43
$GPGLL,4332.30844,N,07936.80030,W,202328.00,A,A*7F
$GPRMC,202329.00,A,4332.30927,N,07936.79954,W,0.538,225.90,131014,,,A*74
$GPVTG,225.90,T,,M,0.538,N,0.997,K,A*38
$GPGGA,202329.00,4332.30927,N,07936.79954,W,1,03,2.11,255.9,M,-36.0,M,,*60
$GPGSA,A,2,26,02,29,,,,,,,,,,2.33,2.11,1.00*0F
$GPGSV,2,1,05,02,49,093,22,21,04,288,15,25,16,241,19,26,33,155,31*73
$GPGSV,2,2,05,29,51,299,32*40
$GPGLL,4332.30927,N,07936.79954,W,202329.00,A,A*77
$GPRMC,202330.00,A,4332.30944,N,07936.79954,W,0.472,227.06,131014,,,A*7B
$GPVTG,227.06,T,,M,0.472,N,0.874,K,A*36
$GPGGA,202330.00,4332.30944,N,07936.79954,W,1,03,2.11,255.9,M,-36.0,M,,*6D
$GPGSA,A,2,26,02,29,,,,,,,,,,2.33,2.11,1.00*0F
$GPGSV,2,1,05,02,49,093,22,21,04,288,14,25,16,241,19,26,33,155,31*72
$GPGSV,2,2,05,29,51,299,31*43
$GPGLL,4332.30944,N,07936.79954,W,202330.00,A,A*7A
$GPRMC,202331.00,A,4332.30950,N,07936.79960,W,0.943,227.14,131014,,,A*74
$GPVTG,227.14,T,,M,0.943,N,1.748,K,A*3B
$GPGGA,202331.00,4332.30950,N,07936.79960,W,1,03,2.11,255.9,M,-36.0,M,,*6E
$GPGSA,A,2,26,02,29,,,,,,,,,,2.33,2.11,1.00*0F
$GPGSV,2,1,05,02,49,093,22,21,04,288,14,25,16,241,19,26,33,155,31*72
$GPGSV,2,2,05,29,51,299,31*43
$GPGLL,4332.30950,N,07936.79960,W,202331.00,A,A*79
$GPRMC,202332.00,A,4332.30975,N,07936.79920,W,0.504,224.84,131014,,,A*71
$GPVTG,224.84,T,,M,0.504,N,0.934,K,A*3A
$GPGGA,202332.00,4332.30975,N,07936.79920,W,1,03,2.11,255.9,M,-36.0,M,,*6E
$GPGSA,A,2,26,02,29,,,,,,,,,,2.33,2.11,1.00*0F
$GPGSV,2,1,05,02,49,093,21,21,04,288,14,25,16,241,19,26,33,155,31*71
$GPGSV,2,2,05,29,51,299,32*40
$GPGLL,4332.30975,N,07936.79920,W,202332.00,A,A*79
$GPRMC,202333.00,A,4332.31049,N,07936.79824,W,1.120,214.35,131014,,,A*78
$GPVTG,214.35,T,,M,1.120,N,2.076,K,A*3D
$GPGGA,202333.00,4332.31049,N,07936.79824,W,1,03,2.11,255.9,M,-36.0,M,,*6D
$GPGSA,A,2,26,02,29,,,,,,,,,,2.33,2.11,1.00*0F
$GPGSV,2,1,05,02,49,093,21,21,04,288,15,25,16,241,18,26,33,155,32*72
$GPGSV,2,2,05,29,51,299,31*43
$GPGLL,4332.31049,N,07936.79824,W,202333.00,A,A*7A
$GPRMC,202334.00,A,4332.31180,N,07936.79651,W,3.462,46.98,131014,,,A*44
$GPVTG,46.98,T,,M,3.462,N,6.415,K,A*0B
$GPGGA,202334.00,4332.31180,N,07936.79651,W,1,03,2.11,255.9,M,-36.0,M,,*62
$GPGSA,A,2,26,02,29,,,,,,,,,,2.33,2.11,1.00*0F
$GPGSV,2,1,05,02,49,093,19,21,04,288,15,25,16,241,16,26,33,155,32*77
$GPGSV,2,2,05,29,51,299,31*43
$GPGLL,4332.31180,N,07936.79651,W,202334.00,A,A*75
$GPRMC,202335.00,V,,,,,,,131014,,,N*7E
$GPVTG,,,,,,,,,N*30
$GPGGA,202335.00,,,,,0,00,99.99,,,,,,*63
$GPGSA,A,1,,,,,,,,,,,,,99.99,99.99,99.99*30
$GPGSV,2,1,05,02,49,093,18,21,04,288,15,25,16,241,15,26,33,155,32*75
$GPGSV,2,2,05,29,52,299,32*43
$GPGLL,,,,,202335.00,V,N*4F
$GPRMC,202336.00,V,,,,,,,131014,,,N*7D
$GPVTG,,,,,,,,,N*30
$GPGGA,202336.00,,,,,0,00,99.99,,,,,,*60
$GPGSA,A,1,,,,,,,,,,,,,99.99,99.99,99.99*30
$GPGSV,2,1,05,02,49,093,,21,04,288,16,25,16,241,16,26,33,155,32*7C
$GPGSV,2,2,05,29,52,299,32*43
$GPGLL,,,,,202336.00,V,N*4C
$GPRMC,202337.00,V,,,,,,,131014,,,N*7C
$GPVTG,,,,,,,,,N*30
$GPGGA,202337.00,,,,,0,00,99.99,,,,,,*61
$GPGSA,A,1,,,,,,,,,,,,,99.99,99.99,99.99*30
$GPGSV,2,1,05,02,49,093,,21,04,288,16,25,16,241,16,26,33,155,32*7C
$GPGSV,2,2,05,29,52,299,32*43
$GPGLL,,,,,202337.00,V,N*4D
$GPRMC,202338.00,V,,,,,,,131014,,,N*73
$GPVTG,,,,,,,,,N*30
$GPGGA,202338.00,,,,,0,00,99.99,,,,,,*6E
$GPGSA,A,1,,,,,,,,,,,,,99.99,99.99,99.99*30
$GPGSV,2,1,05,02,49,093,,21,04,288,15,25,16,241,16,26,33,155,32*7F
$GPGSV,2,2,05,29,52,299,32*43
$GPGLL,,,,,202338.00,V,N*42
$GPRMC,202339.00,V,,,,,,,131014,,,N*72
$GPVTG,,,,,,,,,N*30
$GPGGA,202339.00,,,,,0,00,99.99,,,,,,*6F
$GPGSA,A,1,,,,,,,,,,,,,99.99,99.99,99.99*30
$GPGSV,2,1,05,02,49,093,,21,04,288,15,25,16,241,16,26,33,155,32*7F
$GPGSV,2,2,05,29,52,299,31*40
$GPGLL,,,,,202339.00,V,N*43
$GPRMC,202340.00,V,,,,,,,131014,,,N*7C
$GPVTG,,,,,,,,,N*30
$GPGGA,202340.00,,,,,0,00,99.99,,,,,,*61
$GPGSA,A,1,,,,,,,,,,,,,99.99,99.99,99.99*30
$GPGSV,2,1,05,02,49,093,,21,04,288,14,25,16,241,16,26,33,155,32*7E
$GPGSV,2,2,05,29,52,299,32*43
$GPGLL,,,,,202340.00,V,N*4D
$GPRMC,202341.00,V,,,,,,,131014,,,N*7D
$GPVTG,,,,,,,,,N*30
$GPGGA,202341.00,,,,,0,00,99.99,,,,,,*60
$GPGSA,A,1,,,,,,,,,,,,,99.99,99.99,99.99*30
$GPGSV,2,1,05,02,49,093,,21,04,288,16,25,16,241,17,26,33,155,32*7D
$GPGSV,2,2,05,29,52,299,32*43
$GPGLL,,,,,202341.00,V,N*4C
$GPRMC,202342.00,V,,,,,,,131014,,,N*7E
$GPVTG,,,,,,,,,N*30
$GPGGA,202342.00,,,,,0,00,99.99,,,,,,*63
$GPGSA,A,1,,,,,,,,,,,,,99.99,99.99,99.99*30
$GPGSV,2,1,05,02,49,093,,21,04,288,17,25,16,241,18,26,33,155,32*73
$GPGSV,2,2,05,29,52,299,32*43
$GPGLL,,,,,202342.00,V,N*4F
$GPRMC,202343.00,V,,,,,,,131014,,,N*7F
$GPVTG,,,,,,,,,N*30
$GPGGA,202343.00,,,,,0,00,99.99,,,,,,*62
$GPGSA,A,1,,,,,,,,,,,,,99.99,99.99,99.99*30
$GPGSV,2,1,05,02,49,093,,21,04,288,16,25,16,241,18,26,33,155,31*71
$GPGSV,2,2,05,29,52,299,32*43
$GPGLL,,,,,202343.00,V,N*4E
$GPRMC,202344.00,V,,,,,,,131014,,,N*78
$GPVTG,,,,,,,,,N*30
$GPGGA,202344.00,,,,,0,00,99.99,,,,,,*65
$GPGSA,A,1,,,,,,,,,,,,,99.99,99.99,99.99*30
$GPGSV,2,1,05,02,49,093,,21,04,288,,25,16,241,18,26,33,155,31*76
$GPGSV,2,2,05,29,52,299,32*43
$GPGLL,,,,,202344.00,V,N*49
$GPRMC,202345.00,V,,,,,,,131014,,,N*79
$GPVTG,,,,,,,,,N*30
$GPGGA,202345.00,,,,,0,00,99.99,,,,,,*64
$GPGSA,A,1,,,,,,,,,,,,,99.99,99.99,99.99*30
$GPGSV,2,1,05,02,49,093,,21,04,288,24,25,16,241,18,26,33,155,31*70
$GPGSV,2,2,05,29,52,299,32*43
$GPGLL,,,,,202345.00,V,N*48
$GPRMC,202346.00,V,,,,,,,131014,,,N*7A
$GPVTG,,,,,,,,,N*30
$GPGGA,202346.00,,,,,0,00,99.99,,,,,,*67
$GPGSA,A,1,,,,,,,,,,,,,99.99,99.99,99.99*30
$GPGSV,2,1,05,02,49,093,,21,04,288,20,25,16,241,19,26,33,155,31*75
$GPGSV,2,2,05,29,52,299,32*43
$GPGLL,,,,,202346.00,V,N*4B
$GPRMC,202347.00,V,,,,,,,131014,,,N*7B
$GPVTG,,,,,,,,,N*30
$GPGGA,202347.00,,,,,0,00,99.99,,,,,,*66
$GPGSA,A,1,,,,,,,,,,,,,99.99,99.99,99.99*30
$GPGSV,2,1,05,02,49,093,,21,04,288,,25,16,241,19,26,33,155,31*77
$GPGSV,2,2,05,29,52,299,32*43
$GPGLL,,,,,202347.00,V,N*4A
$GPRMC,202348.00,V,,,,,,,131014,,,N*74
$GPVTG,,,,,,,,,N*30
$GPGGA,202348.00,,,,,0,00,99.99,,,,,,*69
$GPGSA,A,1,,,,,,,,,,,,,99.99,99.99,99.99*30
$GPGSV,2,1,05,02,49,093,,21,04,288,,25,16,241,19,26,33,155,31*77
$GPGSV,2,2,05,29,52,299,32*43
$GPGLL,,,,,202348.00,V,N*45
$GPRMC,202349.00,V,,,,,,,131014,,,N*75
$GPVTG,,,,,,,,,N*30
$GPGGA,202349.00,,,,,0,00,99.99,,,,,,*68
$GPGSA,A,1,,,,,,,,,,,,,99.99,99.99,99.99*30
$GPGSV,2,1,05,02,49,093,,21,04,288,,25,16,241,19,26,33,155,31*77
$GPGSV,2,2,05,29,52,299,31*40
$GPGLL,,,,,202349.00,V,N*44
$GPRMC,202350.00,V,,,,,,,131014,,,N*7D
$GPVTG,,,,,,,,,N*30
$GPGGA,202350.00,,,,,0,00,99.99,,,,,,*60
$GPGSA,A,1,,,,,,,,,,,,,99.99,99.99,99.99*30
$GPGSV,2,1,05,02,49,093,,21,04,288,,25,16,241,18,26,33,155,31*76
$GPGSV,2,2,05,29,52,299,32*43
$GPGLL,,,,,202350.00,V,N*4C
$GPRMC,202351.00,V,,,,,,,131014,,,N*7C
$GPVTG,,,,,,,,,N*30
$GPGGA,202351.00,,,,,0,00,99.99,,,,,,*61
$GPGSA,A,1,,,,,,,,,,,,,99.99,99.99,99.99*30
$GPGSV,2,1,05,02,49,093,,21,04,288,,25,16,241,18,26,33,155,30*77
$GPGSV,2,2,05,29,52,299,31*40
$GPGLL,,,,,202351.00,V,N*4D
$GPRMC,202352.00,V,,,,,,,131014,,,N*7F
$GPVTG,,,,,,,,,N*30
$GPGGA,202352.00,,,,,0,00,99.99,,,,,,*62
$GPGSA,A,1,,,,,,,,,,,,,99.99,99.99,99.99*30
$GPGSV,2,1,05,02,49,093,,21,04,288,,25,16,241,18,26,33,155,31*76
$GPGSV,2,2,05,29,52,299,31*40
$GPGLL,,,,,202352.00,V,N*4E
$GPRMC,202353.00,V,,,,,,,131014,,,N*7E
$GPVTG,,,,,,,,,N*30
$GPGGA,202353.00,,,,,0,00,99.99,,,,,,*63
$GPGSA,A,1,,,,,,,,,,,,,99.99,99.99,99.99*30
$GPGSV,2,1,05,02,49,093,,21,04,288,,25,16,241,16,26,33,155,31*78
$GPGSV,2,2,05,29,52,299,31*40
$GPGLL,,,,,202353.00,V,N*4F
$GPRMC,202354.00,V,,,,,,,131014,,,N*79
$GPVTG,,,,,,,,,N*30
$GPGGA,202354.00,,,,,0,00,99.99,,,,,,*64
$GPGSA,A,1,,,,,,,,,,,,,99.99,99.99,99.99*30
$GPGSV,2,1,05,02,49,093,,21,04,288,,25,16,241,14,26,33,155,31*7A
$GPGSV,2,2,05,29,52,299,31*40
$GPGLL,,,,,202354.00,V,N*48
